$GPGSA,A,2,15,23,24,,,,,,,,,,6.8,6.7,1.0*3E
$GPRMC,084851.881,A,4716.1631,N,00938.0655,E,0.11,32.07,160125,,,A*5D
$GPVTG,32.07,T,,M,0.11,N,0.2,K,N*36
$GPGGA,084852.881,4716.1631,N,00938.0654,E,1,03,6.7,-48.0,M,48.0,M,,0000*45
$GPGSA,A,2,15,23,24,,,,,,,,,,6.8,6.7,1.0*3E
$GPRMC,084852.881,A,4716.1631,N,00938.0654,E,0.18,264.02,160125,,,A*62
$GPVTG,264.02,T,,M,0.18,N,0.3,K,N*0A
$GPGGA,084853.881,4716.1631,N,00938.0655,E,1,03,6.8,-48.0,M,48.0,M,,0000*4A
$GPGSA,A,2,15,23,24,,,,,,,,,,6.8,6.8,1.0*31
$GPRMC,084853.881,A,4716.1631,N,00938.0655,E,0.18,9.99,160125,,,A*69
$GPVTG,9.99,T,,M,0.18,N,0.3,K,N*01
$GPGGA,084854.885,4716.1632,N,00938.0654,E,1,03,6.8,-48.0,M,48.0,M,,0000*4B
$GPGSA,A,2,15,23,24,,,,,,,,,,6.8,6.8,1.0*31
$GPRMC,084854.885,A,4716.1632,N,00938.0654,E,0.31,340.98,160125,,,A*6C
$GPVTG,340.98,T,,M,0.31,N,0.6,K,N*00
$GPGGA,084855.881,4716.1631,N,00938.0653,E,1,03,6.8,-48.0,M,48.0,M,,0000*4A
$GPGSA,A,2,15,23,24,,,,,,,,,,6.8,6.8,1.0*31
$GPGSV,3,1,12,15,72,250,34,24,41,280,36,23,28,300,40,13,61,135,20*79
$GPGSV,3,2,12,14,40,055,19,28,36,211,,27,35,275,,30,33,225,*7A
$GPGSV,3,3,12,05,31,056,24,09,30,277,,17,29,096,,19,20,129,*72
$GPRMC,084855.881,A,4716.1631,N,00938.0653,E,0.27,257.40,160125,,,A*68
$GPVTG,257.40,T,,M,0.27,N,0.5,K,N*06
$GPGGA,084856.881,4716.1629,N,00938.0651,E,1,03,6.8,-48.0,M,48.0,M,,0000*42
$GPGSA,A,2,15,23,24,,,,,,,,,,6.8,6.8,1.0*31
$GPRMC,084856.881,A,4716.1629,N,00938.0651,E,0.00,,160125,,,A*7F
$GPVTG,,T,,M,0.00,N,0.0,K,N*1C
$GPGGA,084857.881,4716.1629,N,00938.0649,E,1,03,6.8,-48.0,M,48.0,M,,0000*4A
$GPGSA,A,2,15,23,24,,,,,,,,,,6.8,6.8,1.0*31
$GPRMC,084857.881,A,4716.1629,N,00938.0649,E,0.22,352.45,160125,,,A*6C
$GPVTG,352.45,T,,M,0.22,N,0.4,K,N*03
$GPGGA,084858.881,4716.1628,N,00938.0648,E,1,03,6.8,-48.0,M,48.0,M,,0000*45
$GPGSA,A,2,15,23,24,,,,,,,,,,6.9,6.8,1.0*30
$GPRMC,084858.881,A,4716.1628,N,00938.0648,E,0.31,261.21,160125,,,A*62
$GPVTG,261.21,T,,M,0.31,N,0.6,K,N*00
$GPGGA,084859.881,4716.1628,N,00938.0646,E,1,03,6.8,-48.0,M,48.0,M,,0000*4A
$GPGSA,A,2,15,23,24,,,,,,,,,,6.9,6.8,1.0*30
$GPRMC,084859.881,A,4716.1628,N,00938.0646,E,0.23,25.62,160125,,,A*5B
$GPVTG,25.62,T,,M,0.23,N,0.4,K,N*34
$GPGGA,084900.881,4716.1628,N,00938.0646,E,1,03,6.8,-48.0,M,48.0,M,,0000*47
$GPGSA,A,2,15,23,24,,,,,,,,,,6.9,6.8,1.0*30
$GPGSV,3,1,12,15,72,250,34,24,41,280,36,23,28,300,41,13,61,135,20*78
$GPGSV,3,2,12,14,40,055,18,28,36,211,,27,35,275,,30,33,225,*7B
$GPGSV,3,3,12,05,31,056,24,09,30,277,,17,29,096,,19,20,129,*72
$GPRMC,084900.881,A,4716.1628,N,00938.0646,E,0.17,56.24,160125,,,A*57
$GPVTG,56.24,T,,M,0.17,N,0.3,K,N*32
$GPGGA,084901.881,4716.1628,N,00938.0646,E,1,03,6.8,-48.0,M,48.0,M,,0000*46
$GPGSA,A,2,15,23,24,,,,,,,,,,6.9,6.8,1.0*30
$GPRMC,084901.881,A,4716.1628,N,00938.0646,E,0.18,264.02,160125,,,A*6E
$GPVTG,264.02,T,,M,0.18,N,0.3,K,N*0A
$GPGGA,084902.881,4716.1627,N,00938.0645,E,1,03,6.8,-48.0,M,48.0,M,,0000*49
$GPGSA,A,2,15,23,24,,,,,,,,,,6.9,6.8,1.0*30
$GPRMC,084902.881,A,4716.1627,N,00938.0645,E,0.17,278.45,160125,,,A*60
$GPVTG,278.45,T,,M,0.17,N,0.3,K,N*0B
$GPGGA,084903.881,4716.1627,N,00938.0644,E,1,03,6.8,-48.0,M,48.0,M,,0000*49
$GPGSA,A,2,15,23,24,,,,,,,,,,6.9,6.8,1.0*30
$GPRMC,084903.881,A,4716.1627,N,00938.0644,E,0.10,233.25,160125,,,A*6E
$GPVTG,233.25,T,,M,0.10,N,0.2,K,N*04
$GPGGA,084904.885,4716.1628,N,00938.0671,E,1,03,6.8,-48.0,M,48.0,M,,0000*43
$GPGSA,A,2,15,23,24,,,,,,,,,,6.9,6.8,1.0*30
$GPRMC,084904.885,A,4716.1628,N,00938.0671,E,0.26,18.10,160125,,,A*5C
$GPVTG,18.10,T,,M,0.26,N,0.5,K,N*3B
$GPGGA,084905.881,4716.1629,N,00938.0715,E,1,03,6.8,-48.0,M,48.0,M,,0000*44
$GPGSA,A,2,15,23,24,,,,,,,,,,6.9,6.8,1.0*30
$GPGSV,3,1,12,15,72,250,34,24,41,280,35,23,28,300,41,13,61,135,19*71
$GPGSV,3,2,12,14,40,055,16,28,36,211,,27,35,275,,30,33,225,*75
$GPGSV,3,3,12,05,31,056,23,09,30,277,,17,29,096,,19,20,129,*75
$GPRMC,084905.881,A,4716.1629,N,00938.0715,E,0.61,94.81,160125,,,A*54
$GPVTG,94.81,T,,M,0.61,N,1.1,K,N*31
$GPGGA,084906.881,4716.1626,N,00938.0635,E,1,03,6.8,-48.0,M,48.0,M,,0000*4B
$GPGSA,A,2,15,23,24,,,,,,,,,,6.9,6.8,1.0*30
$GPRMC,084906.881,A,4716.1626,N,00938.0635,E,0.49,87.02,160125,,,A*58
$GPVTG,87.02,T,,M,0.49,N,0.9,K,N*3B
$GPGGA,084907.881,4716.1627,N,00938.0645,E,1,03,6.8,-48.0,M,48.0,M,,0000*4C
$GPGSA,A,2,15,23,24,,,,,,,,,,6.9,6.8,1.0*30
$GPRMC,084907.881,A,4716.1627,N,00938.0645,E,0.33,235.65,160125,,,A*68
$GPVTG,235.65,T,,M,0.33,N,0.6,K,N*03
$GPGGA,084908.881,4716.1626,N,00938.0600,E,1,03,6.8,-48.0,M,48.0,M,,0000*43
$GPGSA,A,2,15,23,24,,,,,,,,,,6.9,6.8,1.0*30
$GPRMC,084908.881,A,4716.1626,N,00938.0600,E,1.12,268.93,160125,,,A*64
$GPVTG,268.93,T,,M,1.12,N,2.1,K,N*05